City_ID,City,Lat,Lng,Max Temp,Humidity,Cloudiness,Wind Speed,Country,Date
0,alice springs,-23.7,133.8833,35.75,13,91,7.2,AU,1696235273
1,zavoronezhskoye,52.8801,40.5526,12.88,88,100,3.13,RU,1696235520
2,saurimo,-9.6608,20.3916,32.21,36,88,0.99,AO,1696235520
3,portland,45.5234,-122.6762,13.12,84,40,0.45,US,1696234955
4,minas de marcona,-15.2119,-75.1103,13.37,92,88,4.09,PE,1696235520
5,lompoc,34.6391,-120.4579,12.74,87,0,2.06,US,1696235484
6,fale old settlement,-9.3852,-171.2468,27.56,80,100,2.92,TK,1696235520
7,ust-nera,64.5667,143.2,1.79,56,22,2.68,RU,1696235520
8,port-aux-francais,-49.35,70.2167,0.55,67,44,18.57,TF,1696235520
9,utrik,11.2278,169.8474,28.43,80,80,4.86,MH,1696235520
10,khanbari,27.3747,87.2039,27.1,76,99,2.23,NP,1696235520
11,semenivka,52.1783,32.5818,11.68,49,65,4.11,UA,1696235521
12,mitu,1.1983,-70.1733,23.24,92,92,1.04,CO,1696235521
13,borujen,31.9652,51.2873,23.58,18,71,4.03,IR,1696235521
14,talnakh,69.4865,88.3972,-5.44,88,94,4.26,RU,1696235521
15,salacgriva,57.7536,24.3581,14.26,77,72,4.48,LV,1696235521
16,grytviken,-54.2811,-36.5092,3.27,88,93,6.09,GS,1696235521
17,hermanus,-34.4187,19.2345,21.84,48,0,1.76,ZA,1696235521
18,viedma,-40.8135,-62.9967,15.43,43,100,6.27,AR,1696235521
19,puerto natales,-51.7236,-72.4875,-0.67,91,70,1.82,CL,1696235522
20,margaret river,-33.95,115.0667,13.06,49,89,9.16,AU,1696235522
21,la'ie,21.6477,-157.9253,26.98,78,50,2.68,US,1696235522
22,punta arenas,-53.15,-70.9167,-0.94,86,40,4.63,CL,1696235522
23,usakos,-22.0,15.6,34.74,7,0,3.45,NA,1696235522
24,porto seguro,-16.4497,-39.0647,20.29,94,0,1.03,BR,1696235522
25,invercargill,-46.4,168.35,6.68,68,87,5.81,NZ,1696235522
26,vadso,70.0744,29.7487,3.09,75,20,6.69,NO,1696235522
27,olonkinbyen,70.9221,-8.7187,1.05,99,100,7.67,SJ,1696235523
28,anastacio,-20.4836,-55.8069,24.66,69,44,1.58,BR,1696235363
29,adamstown,-25.066,-130.1015,20.23,78,24,11.18,PN,1696235523
30,navia,43.5354,-6.7194,23.99,53,2,2.09,ES,1696235523
31,bilibino,68.0546,166.4372,-1.14,98,100,1.04,RU,1696235523
32,albany,42.6001,-73.9662,15.91,94,58,0.45,US,1696235407
33,port elizabeth,-33.918,25.5701,22.83,67,0,7.2,ZA,1696235400
34,ak-suu,42.4995,78.527,15.71,37,100,2.3,KG,1696235523
35,sinfra,6.6167,-5.9167,23.64,91,96,1.89,CI,1696235524
36,mejit,10.2753,170.8646,28.29,80,65,4.5,MH,1696235524
37,hasaki,35.7333,140.8333,22.94,50,100,7.54,JP,1696235524
38,bethel,41.3712,-73.414,17.19,86,0,0.0,US,1696235524
39,waitangi,-43.9535,-176.5597,13.79,88,99,4.02,NZ,1696235524
40,papatowai,-46.5619,169.4708,6.14,64,97,7.81,NZ,1696235524
41,hadibu,12.65,54.0333,28.7,70,18,1.54,YE,1696235524
42,la tuque,47.4334,-72.7824,7.14,100,20,0.51,CA,1696235343
43,yellowknife,62.456,-114.3525,5.29,100,20,1.54,CA,1696235525
44,petropavlovsk-kamchatsky,53.0452,158.6483,8.05,96,100,6.71,RU,1696235525
45,choyr,46.3611,108.3611,14.26,33,81,7.43,MN,1696235525
46,tazovsky,67.4667,78.7,3.46,98,100,7.75,RU,1696235525
47,saldanha,-33.0117,17.9442,24.03,36,0,0.32,ZA,1696235525
48,lebu,-37.6167,-73.65,7.41,87,97,1.77,CL,1696235525
49,aykhal,66.0,111.5,0.04,98,97,7.15,RU,1696235525
50,anshun,26.25,105.9333,23.56,71,64,6.17,CN,1696235417
51,klyuchi,52.2667,79.1667,13.98,32,0,4.11,RU,1696235526
52,malanje,-9.5402,16.341,28.92,51,14,0.67,AO,1696235526
53,tabou,4.423,-7.3528,25.3,87,100,4.16,CI,1696235526
54,la sarre,48.8002,-79.1996,12.27,94,77,2.92,CA,1696235526
55,georgetown,5.4112,100.3354,32.19,70,40,3.6,MY,1696235412
56,gemena,3.25,19.7667,32.38,56,49,0.33,CD,1696235526
57,muslyumovo,55.3033,53.1947,17.46,51,100,6.37,RU,1696235526
58,sarikei,2.1167,111.5167,30.7,68,96,1.0,MY,1696235526
59,iskateley,67.6803,53.1512,10.57,96,100,3.58,RU,1696235527
60,isafjordur,66.0755,-23.124,6.02,70,75,9.77,IS,1696235527
61,whitehorse,60.7161,-135.0538,6.43,83,75,7.2,CA,1696235354
62,luderitz,-26.6481,15.1594,20.94,58,0,3.1,NA,1696235527
63,puerto ayora,-0.7393,-90.3518,21.42,100,93,2.24,EC,1696235479
64,ribeira grande,38.5167,-28.7,19.22,59,20,6.17,PT,1696235527
65,bijie,27.3125,105.2942,21.86,80,97,2.14,CN,1696235527
66,ceeldheer,3.8488,47.1806,30.95,57,5,8.18,SO,1696235527
67,north platte,41.1239,-100.7654,20.94,72,0,5.14,US,1696235527
68,hawaiian paradise park,19.5933,-154.9731,22.8,95,0,1.54,US,1696235528
69,longyearbyen,78.2186,15.6401,-3.09,63,75,8.75,SJ,1696235528
70,xique xique,-10.8217,-42.7311,23.13,76,7,8.86,BR,1696235528
71,bodo,67.28,14.405,8.3,81,0,6.69,NO,1696235528
72,along,28.1667,94.7667,28.62,84,79,0.36,IN,1696235528
73,ilulissat,69.2167,-51.1,-1.99,50,0,3.09,GL,1696235528
74,nago,26.5881,127.9761,30.47,83,25,7.23,JP,1696235528
75,nieuw amsterdam,5.8833,-55.0833,26.12,88,52,4.54,SR,1696235528
76,bonthe,7.5264,-12.505,27.42,80,100,3.07,SL,1696235528
77,kapa'a,22.0752,-159.319,26.18,87,100,7.2,US,1696235529
78,tolanaro,-25.0319,46.9987,21.04,88,75,6.17,MG,1696235529
79,mount pearl,47.5166,-52.7813,12.3,95,100,4.12,CA,1696235529
80,nova sintra,14.8667,-24.7167,23.86,79,77,5.31,CV,1696235529
81,martuk,50.7475,56.5056,19.3,36,99,4.29,KZ,1696235529
82,kaa-khem,51.6833,94.7333,9.67,35,10,1.92,RU,1696235529
83,enewetak,11.3474,162.3373,29.11,76,96,6.4,MH,1696235529
84,kismayo,-0.3582,42.5454,28.74,65,0,7.7,SO,1696235529
85,howrah,22.5892,88.3103,29.0,89,75,2.06,IN,1696235530
86,brookings,44.3114,-96.7984,20.77,61,0,4.63,US,1696235530
87,new norfolk,-42.7826,147.0587,16.72,52,0,2.03,AU,1696235530
88,ghat,24.9647,10.1728,29.76,30,0,3.19,LY,1696235530
89,kharp,66.8014,65.8081,10.12,90,99,3.99,RU,1696235530
90,mount gambier,-37.8333,140.7667,18.94,47,0,2.92,AU,1696235494
91,college,64.8569,-147.8028,2.97,91,100,2.57,US,1696235530
92,bubaque,11.2833,-15.8333,27.85,82,57,1.91,GW,1696235530
93,san patricio,28.017,-97.5169,27.94,85,18,3.24,US,1696235531
94,north ward,-19.2454,146.8075,23.95,73,40,5.66,AU,1696235531
95,vorgashor,67.5833,63.95,9.13,87,100,7.75,RU,1696235531
96,kourou,5.1552,-52.6478,24.03,85,72,3.87,GF,1696235531
97,blackmans bay,-43.0167,147.3167,16.07,50,0,4.52,AU,1696235531
98,east london,-33.0153,27.9116,21.52,52,0,5.14,ZA,1696235531
99,lihue,21.9789,-159.3672,25.77,84,100,7.2,US,1696235368
100,altar,30.7,-111.8167,18.92,59,0,1.67,MX,1696235531
101,jinchang,38.4953,102.1739,19.9,32,0,3.08,CN,1696235531
102,atafu village,-8.5421,-172.5159,28.38,75,37,4.38,TK,1696235532
103,nantucket,41.2835,-70.0995,16.06,86,0,5.14,US,1696235502
104,xapuri,-10.6517,-68.5044,22.95,85,86,0.9,BR,1696235532
105,machico,32.7,-16.7667,25.0,81,20,3.09,PT,1696235532
106,fada,9.5667,8.3,22.47,91,100,0.74,NG,1696235532
107,ushuaia,-54.8,-68.3,-0.19,74,75,3.09,AR,1696235532
108,san carlos,9.6612,-68.5827,23.85,96,100,0.82,VE,1696235532
109,kande,9.9578,1.0447,27.72,73,95,2.56,TG,1696235532
110,jamestown,42.097,-79.2353,15.8,99,100,0.45,US,1696235526
111,gizo,-8.103,156.8419,27.23,84,79,5.49,SB,1696235532
112,badger,64.8,-147.5333,2.93,94,100,2.57,US,1696235533
113,katsuura,35.1333,140.3,21.76,63,100,5.66,JP,1696235533
114,port said,31.2565,32.2841,25.99,57,75,4.63,EG,1696235533
115,diffa,13.3154,12.6113,27.61,52,100,2.39,NE,1696235533
116,monrovia,6.3005,-10.7969,25.87,85,58,4.49,LR,1696235533
117,la gi,10.6667,107.7833,25.07,93,100,3.74,VN,1696235533
118,oranjemund,-28.55,16.4333,22.64,49,0,1.55,NA,1696235534
119,staryye ozinki,51.1786,49.6769,20.06,37,100,3.35,RU,1696235534
120,kiunga,-6.1219,141.2906,24.09,97,89,1.69,PG,1696235534
121,stanley,54.868,-1.6985,12.06,92,0,1.54,GB,1696235534
122,bhuj,23.2667,69.6667,35.46,16,96,3.06,IN,1696235430
123,port mathurin,-19.6833,63.4167,23.51,84,25,6.05,MU,1696235534
124,la ronge,55.1001,-105.2842,7.14,81,100,4.12,CA,1696235534
125,polyarnyy,69.1989,33.4478,3.86,65,45,7.66,RU,1696235534
126,al bardiyah,31.7561,25.0865,26.09,44,2,3.23,LY,1696235534
127,maintirano,-18.0667,44.0167,29.51,58,5,7.95,MG,1696235535
128,ciudad bolivar,8.1222,-63.5497,25.0,88,87,1.74,VE,1696235465
129,ola,59.5833,151.2833,9.67,72,12,2.09,RU,1696235535
130,edinburgh of the seven seas,-37.0676,-12.3116,9.69,68,89,10.97,SH,1696235535
131,iqaluit,63.7506,-68.5145,2.85,86,100,3.6,CA,1696235535
132,benjamin hill,30.1667,-111.1,18.29,47,0,2.04,MX,1696235535
133,gisborne,-38.6533,178.0042,16.44,72,92,4.35,NZ,1696235417
134,nchelenge,-9.3451,28.734,31.31,40,13,3.56,ZM,1696235535
135,rio bueno,-40.3167,-72.9667,8.08,99,100,0.88,CL,1696235536
136,murun-kuren,49.6342,100.1625,8.67,63,97,0.32,MN,1696235536
137,nemuro,43.3236,145.575,15.52,72,3,6.36,JP,1696235536
138,valley city,46.9233,-98.0032,21.29,64,0,4.12,US,1696235536
139,la passe,45.5549,-0.8967,22.23,49,67,6.21,FR,1696235536
140,mahina,-17.5065,-149.489,26.87,69,100,1.03,PF,1696235536
141,constantia,44.1833,28.65,21.5,42,14,8.26,RO,1696235536
142,el haouaria,37.05,11.0144,25.01,59,0,4.0,TN,1696235536
143,boende,-0.2167,20.8667,34.55,45,89,1.05,CD,1696235536
144,bredasdorp,-34.5322,20.0403,23.09,38,0,2.93,ZA,1696235537
145,redwood falls,44.5394,-95.1169,22.01,68,0,4.63,US,1696235537
146,mount isa,-20.7333,139.5,33.87,14,0,3.6,AU,1696235537
147,port sudan,19.6175,37.2164,33.7,53,0,4.65,SD,1696235537
148,yuzhno-kurilsk,44.0306,145.8556,14.65,74,35,2.66,RU,1696235537
149,pacific grove,36.6177,-121.9166,14.45,91,75,0.45,US,1696235504
150,launceston,-41.45,147.1667,12.8,71,0,6.17,AU,1696235305
151,tsiombe,-25.3,45.4833,19.85,77,100,6.02,MG,1696235537
152,cururupu,-1.8283,-44.8683,26.7,75,62,3.38,BR,1696235537
153,montagu,-40.7667,144.9667,12.16,86,0,9.21,AU,1696235538
154,lucapa,-8.4192,20.7447,33.67,37,13,0.62,AO,1696235538
155,ramachandrapuram,16.85,82.0167,32.23,72,100,4.57,IN,1696235538
156,faya-largeau,17.9257,19.1043,34.3,20,98,15.68,TD,1696235538
157,malango,-2.9627,119.9001,26.29,65,82,1.85,ID,1696235538
158,clovis,36.8252,-119.7029,18.94,67,75,2.57,US,1696235347
159,guerrero negro,27.9769,-114.0611,18.67,78,40,6.57,MX,1696235538
160,taoudenni,22.6783,-3.9836,36.39,11,5,7.16,ML,1696235539
161,diu,20.7141,70.9822,30.2,52,10,5.78,IN,1696235539
162,ngorongoro,-3.2397,35.4875,21.05,40,11,4.38,TZ,1696235539
163,wailua homesteads,22.0669,-159.378,25.44,87,100,7.2,US,1696235539
164,plettenberg bay,-34.0527,23.3716,22.78,42,0,1.84,ZA,1696235539
165,kolokani,13.5728,-8.0339,27.8,59,63,2.34,ML,1696235539
166,port alfred,-33.5906,26.891,22.32,55,1,2.24,ZA,1696235540
167,aasiaat,68.7098,-52.8699,-8.64,83,44,4.91,GL,1696235540
168,newman,37.3138,-121.0208,15.99,78,4,1.22,US,1696235540
169,thompson,55.7435,-97.8558,2.09,100,100,3.6,CA,1696235540
170,alpnach,46.9402,8.2743,22.61,72,0,1.03,CH,1696235540
171,nuuk,64.1835,-51.7216,1.34,80,96,6.71,GL,1696235540
172,tzaneen,-23.8332,30.1635,16.01,64,100,3.52,ZA,1696235540
173,cannonvale,-20.2833,148.7,22.66,82,6,5.0,AU,1696235541
174,afaahiti,-17.75,-149.2833,25.93,88,13,8.41,PF,1696235541
175,usak,38.5,29.4167,17.99,55,78,5.66,TR,1696235541
176,naze,28.3667,129.4833,26.51,78,68,8.28,JP,1696235541
177,igarka,67.4667,86.5833,0.89,73,100,7.3,RU,1696235541
178,tofol,5.3248,163.0078,29.07,70,15,1.41,FM,1696235541
179,northam,51.0333,-4.2167,18.7,100,100,0.83,GB,1696235542
180,bikenibeu village,1.3673,173.1241,29.98,70,20,2.57,KI,1696235542
181,olovyannaya,50.95,115.5667,12.91,49,100,6.08,RU,1696235542
182,moldava nad bodvou,48.6143,20.9996,16.56,74,0,0.51,SK,1696235542
183,de aar,-30.6497,24.0123,18.88,39,0,5.14,ZA,1696235542
184,anamosa,42.1083,-91.2852,18.87,83,9,3.15,US,1696235542
185,newark,40.7357,-74.1724,19.97,81,75,2.57,US,1696235279
186,anatuya,-28.4606,-62.8347,14.74,58,4,5.45,AR,1696235542
187,gadzhiyevo,69.2551,33.3362,3.7,65,48,7.85,RU,1696235543
188,dudinka,69.4058,86.1778,-5.18,83,100,5.36,RU,1696235543
189,bunbury,-33.3333,115.6333,14.17,49,56,9.85,AU,1696235340
190,dubbo,-32.25,148.6167,30.07,20,44,3.09,AU,1696235466
191,al awjam,26.5632,49.9433,40.06,11,0,4.63,SA,1696235543
192,baiao,-2.7906,-49.6717,23.28,95,15,1.41,BR,1696235543
193,sisimiut,66.9395,-53.6735,-0.02,64,92,3.47,GL,1696235476
194,khandyga,62.6667,135.6,5.12,93,91,2.05,RU,1696235543
195,sao tome,0.3365,6.7273,29.02,70,40,5.66,ST,1696235544
196,magadan,59.5667,150.8,9.34,66,16,0.89,RU,1696235544
197,vize,41.5725,27.7658,22.02,43,33,7.81,TR,1696235544
198,bethanie,-26.4833,17.15,32.48,8,0,6.83,NA,1696235544
199,coahuayana de hidalgo,18.7,-103.6583,25.92,95,94,1.23,MX,1696235544
200,hammerfest,70.6634,23.6821,2.25,87,75,4.12,NO,1696235544
201,daru,-9.0763,143.2092,24.92,87,77,5.93,PG,1696235544
202,kodiak,57.79,-152.4072,4.73,93,100,2.06,US,1696235544
203,meadow lakes,61.6247,-149.6011,7.83,95,100,0.0,US,1696235314
204,mana,5.6592,-53.7767,24.84,88,32,4.41,GF,1696235545
205,ellsworth,44.5434,-68.4195,13.69,87,0,3.09,US,1696235545
206,nar'yan-mar,67.6713,53.087,10.62,96,100,3.58,RU,1696235545
207,shatsk,54.0258,41.7119,13.14,69,100,1.44,RU,1696235545
208,duba,27.3513,35.6901,32.56,51,28,5.68,SA,1696235543
209,toliara,-23.35,43.6667,26.2,62,61,9.73,MG,1696235545
210,wanganui,-39.9333,175.05,12.0,82,75,9.83,NZ,1696235545
211,labrador city,52.9463,-66.9114,5.95,93,100,1.54,CA,1696235545
212,leshan,29.5623,103.7639,20.71,87,100,0.49,CN,1696235546
213,lorengau,-2.0226,147.2712,27.41,79,41,2.44,PG,1696235546
214,magdagachi,53.45,125.8,8.36,67,100,1.91,RU,1696235546
215,divo,5.8397,-5.36,25.25,87,96,1.48,CI,1696235546
216,santa ana,33.7456,-117.8678,15.92,82,0,1.54,US,1696235546
217,misratah,32.3754,15.0925,25.41,57,0,4.95,LY,1696235546
218,castillos,-34.1667,-53.8333,6.43,94,2,1.77,UY,1696235546
219,shamkhor,40.8297,46.0189,20.2,62,100,2.45,AZ,1696235546
220,okha,53.5739,142.9478,8.46,95,100,12.18,RU,1696235547
221,fort bragg,35.139,-79.006,16.75,94,0,1.54,US,1696235547
222,berriozar,42.8429,-1.6697,24.56,66,0,0.89,ES,1696235547
223,oranjestad,12.524,-70.027,28.28,91,20,1.54,AW,1696235547
224,timimoun,29.2639,0.231,24.21,35,0,7.72,DZ,1696235547
225,codrington,-38.2667,141.9667,19.52,63,0,2.98,AU,1696235547
226,weno,7.4515,151.8468,28.97,79,100,2.06,FM,1696235547
227,xai-xai,-25.0519,33.6442,23.02,45,34,5.75,MZ,1696235547
228,kavieng,-2.5744,150.7967,28.28,75,12,0.52,PG,1696235548
229,sinop,41.7711,34.8709,20.24,48,97,5.77,TR,1696235548
230,san antonio de pale,-1.4014,5.6325,25.3,83,100,4.51,GQ,1696235548
231,monchegorsk,67.9397,32.8739,3.31,66,53,3.24,RU,1696235548
232,uturoa,-16.7333,-151.4333,25.74,83,8,7.53,PF,1696235548
233,kemin,42.7846,75.6892,19.31,32,31,3.7,KG,1696235548
234,bechar,31.6167,-2.2167,23.18,28,0,0.0,DZ,1696235417
235,urengoy,65.9667,78.3667,5.62,99,100,5.36,RU,1696235481
236,touros,-5.1989,-35.4608,25.56,72,100,5.35,BR,1696235548
237,namibe,-15.1961,12.1522,23.59,58,1,1.84,AO,1696235548
238,pagar alam,-4.0167,103.2667,29.57,46,100,0.85,ID,1696235549
239,tiksi,71.6872,128.8694,-5.42,79,22,1.62,RU,1696235549
240,christchurch,-43.5333,172.6333,11.11,55,75,15.43,NZ,1696235230
241,nong phai,15.9903,101.0618,29.92,78,82,2.21,TH,1696235549
242,kyaikkami,16.08,97.5675,26.96,84,98,4.63,MM,1696235549
243,montevideo,-34.8335,-56.1674,4.84,100,0,0.0,UY,1696235515
244,namtsy,62.7161,129.6658,7.81,84,100,2.05,RU,1696235549
245,urussu,54.5981,53.4631,17.33,46,100,6.4,RU,1696235550
246,luanda,-8.8368,13.2343,25.43,73,61,1.59,AO,1696235550
247,olevano sul tusciano,40.6572,15.0231,24.15,54,0,2.24,IT,1696235550
248,st. john's,47.5649,-52.7093,12.76,95,100,4.12,CA,1696235550
249,leu,44.1833,24.0,21.38,45,0,7.2,RO,1696235550
250,horki,54.2861,30.9842,14.12,56,1,6.32,BY,1696235550
251,strathalbyn,-35.2667,138.9,29.59,34,2,1.51,AU,1696235550
252,cidade velha,14.9167,-23.6167,24.26,94,20,2.57,CV,1696235550
253,flying fish cove,-10.4217,105.6791,26.82,73,75,5.66,CX,1696235551
254,rio grande,-32.035,-52.0986,11.78,78,37,3.06,BR,1696235551
255,gostyn,51.8825,17.0123,20.37,81,98,2.68,PL,1696235551
256,nouadhibou,20.931,-17.0347,24.99,53,0,5.66,MR,1696235551
257,west island,-12.1568,96.8225,26.99,65,40,9.77,CC,1696235551
258,nizhnyaya salda,58.0776,60.7202,13.84,63,92,4.85,RU,1696235551
259,fortuna,40.5982,-124.1573,9.99,94,0,2.06,US,1696235551
260,tamanrasset,22.785,5.5228,26.95,32,0,4.12,DZ,1696235551
261,huarmey,-10.0681,-78.1522,18.21,91,54,4.11,PE,1696235552
262,beau vallon,-20.4189,57.6953,28.13,61,20,6.69,MU,1696235552
263,amarante do maranhao,-5.5667,-46.7422,22.71,74,83,2.4,BR,1696235552
264,turabah,21.2141,41.6331,35.55,8,0,6.64,SA,1696235552
265,wenzhou,27.9994,120.6668,25.4,62,36,3.28,CN,1696235552
266,embarcacion,-23.209,-64.096,15.68,73,5,1.17,AR,1696235552
267,tralee,52.2704,-9.7026,11.14,93,20,1.03,IE,1696235552
268,gamboma,-1.8764,15.8644,33.46,51,15,0.76,CG,1696235552
269,san felice circeo,41.2372,13.0942,26.29,54,2,1.5,IT,1696235553
270,molina,-35.1167,-71.2833,10.85,93,100,1.03,CL,1696235553
271,beyneu,45.3167,55.2,23.96,28,14,5.95,KZ,1696235553
272,ancud,-41.8697,-73.8203,6.41,83,99,1.02,CL,1696235553
273,taro,-8.3862,115.28,25.0,71,95,1.94,ID,1696235553
274,luena,-11.7833,19.9167,32.56,25,58,4.29,AO,1696235553
275,dongola,19.1667,30.4833,40.97,11,14,3.49,SD,1696235553
276,colonia,50.9333,6.95,21.05,73,0,2.06,DE,1696235387
277,bembereke,10.2283,2.6634,26.16,78,90,2.61,BJ,1696235554
278,cidreira,-30.1811,-50.2056,11.19,80,0,2.66,BR,1696235479
279,rundu,-17.9333,19.7667,36.16,14,7,5.71,NA,1696235554
280,sitka,57.0531,-135.33,10.94,87,100,3.6,US,1696235554
281,sereflikochisar,38.9393,33.5386,17.62,63,96,3.6,TR,1696235554
282,meulaboh,4.1363,96.1285,27.28,83,34,2.55,ID,1696235554
283,udachny,66.4167,112.4,0.25,92,94,5.16,RU,1696235554
284,wau,7.7029,27.9953,33.33,49,99,1.71,SS,1696235554
285,essaouira,31.5125,-9.77,23.72,33,100,1.54,MA,1696235554
286,broome,42.2506,-75.833,15.3,96,0,2.06,US,1696235555
287,cabral,18.25,-71.2167,26.64,83,100,1.81,DO,1696235555
288,pasni,25.2631,63.471,29.5,56,0,7.07,PK,1696235555
289,ust'-kut,56.7938,105.7672,2.17,68,100,3.68,RU,1696235538
290,manuguru,17.981,80.7547,28.68,85,100,1.11,IN,1696235555
291,callao,-12.0667,-77.15,19.29,82,100,6.17,PE,1696235555
292,avarua,-21.2078,-159.775,22.03,83,100,7.2,CK,1696235555
293,palo santo,-25.5633,-59.3378,13.7,68,100,2.62,AR,1696235555
294,ouesso,1.6136,16.0517,33.02,50,74,0.63,CG,1696235556
295,maues,-3.3836,-57.7186,24.74,56,97,0.96,BR,1696235556
296,kalabo,-14.97,22.6814,34.84,20,68,4.91,ZM,1696235556
297,keflavik,64.0049,-22.5624,8.24,76,0,9.26,IS,1696235556
298,camocim,-2.9022,-40.8411,24.9,83,71,5.58,BR,1696235556
299,queenstown,-31.8976,26.8753,22.46,19,0,3.18,ZA,1696235556
300,saint-philippe,-21.3585,55.7679,26.77,72,20,2.26,RE,1696235557
301,fort st. john,56.2499,-120.8529,7.94,76,100,4.12,CA,1696235273
302,acarau,-2.8856,-40.12,26.1,77,97,6.47,BR,1696235557
303,mhamid,29.82,-5.72,28.64,21,98,6.66,MA,1696235557
304,rumbek,6.802,29.6912,35.04,38,99,2.29,SS,1696235557
305,carnarvon,-24.8667,113.6333,20.55,63,26,10.88,AU,1696235557
306,usinsk,65.9939,57.5281,9.48,94,98,7.15,RU,1696235557
307,south hedland,-20.4089,118.5983,30.96,42,0,8.23,AU,1696235557
308,turpan,42.9333,89.1667,28.79,18,2,1.11,CN,1696235558
309,bojnurd,37.4747,57.329,23.97,16,0,0.0,IR,1696235558
310,ghadamis,30.1337,9.5007,27.1,35,0,6.72,LY,1696235558
311,san ciro de acosta,21.6333,-99.8167,19.97,91,80,0.48,MX,1696235558
312,kokopo,-4.352,152.2633,25.79,88,56,3.54,PG,1696235558
313,neijiang,29.5835,105.0622,19.95,89,100,2.39,CN,1696235558
314,al burayqah,30.4062,19.5739,24.86,61,3,4.35,LY,1696235558
315,ust'-ilimsk,58.0006,102.6619,1.79,71,100,4.47,RU,1696235558
316,ciudad tula,23.0,-99.7167,17.92,93,27,1.39,MX,1696235558
317,beruniy,41.6911,60.7525,22.98,27,0,3.09,UZ,1696235558
318,pontes e lacerda,-15.2261,-59.3353,23.49,81,45,0.84,BR,1696235559
319,cuyo,10.8525,121.0086,28.24,80,100,10.27,PH,1696235559
320,tazacorte,28.629,-17.9293,23.54,78,75,4.63,ES,1696235559
321,penzance,50.1186,-5.5371,16.62,100,75,5.14,GB,1696235559
322,savanna-la-mar,18.219,-78.1332,27.97,86,38,1.92,JM,1696235559
323,qaqortoq,60.7167,-46.0333,2.42,66,100,2.64,GL,1696235559
324,anadyr,64.75,177.4833,1.28,64,0,1.79,RU,1696235559
325,ta`u,-14.2336,-169.5144,26.75,80,100,10.28,AS,1696235560
326,san andres,12.5847,-81.7006,29.01,84,40,2.06,CO,1696235560
327,fort mcmurray,56.7268,-111.381,7.77,76,100,3.09,CA,1696235435
328,suklayin,15.7574,121.5503,28.51,80,100,2.4,PH,1696235560
329,winder,33.9926,-83.7202,18.07,96,0,0.0,US,1696235560
330,blenheim,-41.516,173.9528,8.99,63,3,4.29,NZ,1696235560
331,vila franca do campo,37.7167,-25.4333,19.93,99,100,3.74,PT,1696235560
332,beichengqu,40.4394,113.1536,19.52,30,76,4.63,CN,1696235560
333,vilyuchinsk,52.9306,158.4028,8.85,96,100,10.73,RU,1696235560
334,kayyerkan,69.3786,87.7439,-5.39,79,100,4.39,RU,1696235561
335,shingu,33.7333,135.9833,20.4,62,95,1.71,JP,1696235561
336,pasuquin,18.3328,120.6177,30.97,79,75,4.12,PH,1696235561
337,saipan,15.1355,145.701,29.39,79,0,5.66,MP,1696235561
338,jwaneng,-24.6004,24.7303,25.84,29,0,10.11,BW,1696235561
339,kirakira,-10.4544,161.9205,26.53,87,100,5.35,SB,1696235561
340,hamilton,39.1834,-84.5333,17.47,91,0,0.45,US,1696234987
341,taksimo,56.3444,114.8794,2.62,90,28,3.58,RU,1696235561
342,awjilah,29.1081,21.2869,27.02,43,37,3.17,LY,1696235561
343,javea,38.7833,0.1667,25.77,70,1,0.89,ES,1696235562
344,kapuskasing,49.4169,-82.4331,17.0,94,75,2.06,CA,1696235562
345,el jadid,33.2549,-8.506,23.45,71,100,1.58,MA,1696235390
346,bereznik,62.8551,42.7072,8.24,86,100,3.96,RU,1696235562
347,mandalgovi,45.7625,106.2708,10.65,46,8,8.8,MN,1696235562
348,seabra,-12.4186,-41.7703,18.29,94,66,1.92,BR,1696235273
349,usogorsk,63.4106,48.6872,10.37,92,100,4.86,RU,1696235562
350,island harbour,50.724,-1.2758,17.21,95,100,0.45,GB,1696235562
351,vizinga,61.0749,50.1031,11.55,81,98,4.95,RU,1696235562
352,villa regina,-39.1,-67.0667,15.55,15,100,1.34,AR,1696235562
353,atamyrat,37.8357,65.2106,26.8,13,2,1.27,TM,1696235563
354,maragogi,-9.0122,-35.2225,21.78,80,35,0.41,BR,1696235309
355,hithadhoo,-0.6,73.0833,28.17,70,39,5.67,MV,1696235563
356,palikir - national government center,6.9248,158.1611,28.94,73,21,2.87,FM,1696235563
357,ketchikan,55.3422,-131.6461,12.26,94,100,4.12,US,1696235563
358,garoua boulai,5.8833,14.55,25.22,77,49,0.44,CM,1696235563
359,taltal,-25.4,-70.4833,14.13,84,4,1.11,CL,1696235563
360,ha giang,22.8333,104.9833,32.58,55,21,1.6,VN,1696235563
361,abbeville,50.1,1.8333,19.72,73,97,1.19,FR,1696235564
362,prince rupert,54.3161,-130.3201,11.83,95,100,5.14,CA,1696235564
363,dawukou,39.0419,106.3958,21.78,38,69,1.11,CN,1696235564
364,kroonstad,-27.6504,27.2349,23.41,33,0,4.97,ZA,1696235564
365,kingston,17.997,-76.7936,27.36,83,10,0.45,JM,1696235564
366,eisen,36.8217,128.6308,16.46,63,86,0.1,KR,1696235564
367,pathein,16.7833,94.7333,25.1,93,100,3.12,MM,1696235564
368,sechura,-5.5569,-80.8222,18.97,87,86,5.29,PE,1696235564
369,carutapera,-1.195,-46.02,26.37,80,26,4.38,BR,1696235564
370,lata,40.1629,-8.3327,24.7,41,1,0.89,PT,1696235565
371,gudalur,9.6833,77.2667,27.94,70,67,4.13,IN,1696235565
372,onega,63.9061,38.1404,7.59,83,100,3.65,RU,1696235565
373,quepos,9.4236,-84.1652,24.81,88,100,0.91,CR,1696235329
374,kavaratti,10.5669,72.642,27.86,77,90,4.11,IN,1696235565
375,fortaleza,-3.7227,-38.5247,25.07,83,20,3.09,BR,1696235379
376,jurmala,56.968,23.7704,14.01,88,20,2.57,LV,1696235565
377,kidal,18.4411,1.4078,34.63,24,60,5.72,ML,1696235565
378,taitung city,22.7583,121.1444,30.15,70,40,4.12,TW,1696235565
379,lazaro cardenas,17.9583,-102.2,27.01,87,100,1.17,MX,1696235566
380,ebaye,8.7748,167.7392,29.01,79,0,5.14,MH,1696235566
381,malvan,16.0667,73.4667,28.17,72,100,4.51,IN,1696235566
382,puerto ayacucho,5.6639,-67.6236,24.08,90,98,1.29,VE,1696235566
383,kristiansund,63.1115,7.732,12.36,76,40,1.54,NO,1696235566
384,haiku-pauwela,20.9219,-156.3051,25.02,69,40,5.14,US,1696235566
385,villa gesell,-37.2639,-56.973,8.36,91,1,3.13,AR,1696235566
386,hami,42.8,93.45,23.91,19,0,0.99,CN,1696235566
387,szentlorinc,46.0402,17.9872,20.49,54,6,1.95,HU,1696235567
388,antsiranana,-12.2787,49.2917,32.42,45,40,3.09,MG,1696235567
389,qarah,34.1527,36.7415,20.44,37,61,0.87,SY,1696235567
390,page,36.9147,-111.4558,16.88,44,100,3.13,US,1696235567
391,stornoway,58.2093,-6.3865,12.98,82,40,7.72,GB,1696235567
392,medvezh'yegorsk,62.9167,34.4667,9.71,71,100,1.69,RU,1696235567
393,san luis de la loma,17.2706,-100.8939,25.98,83,95,1.85,MX,1696235567
394,orchomenos,38.4929,22.9796,22.17,66,53,0.45,GR,1696235568
395,gamba,-2.65,10.0,25.69,82,100,2.61,GA,1696235568
396,khabary,53.6259,79.5345,12.33,24,1,2.06,RU,1696235568
397,sal rei,16.1833,-22.9167,26.11,94,40,3.09,CV,1696235568
398,berrouaghia,36.1352,2.9109,24.21,29,0,0.45,DZ,1696235568
399,goure,13.9835,10.2704,26.49,50,100,0.91,NE,1696235568
400,north bend,43.4065,-124.2243,12.14,94,100,3.09,US,1696235568
401,amga,60.8953,131.9608,11.1,60,100,3.13,RU,1696235568
402,ebon,4.582,168.6964,29.19,72,12,2.57,MH,1696235568
403,mbandaka,0.0487,18.2603,30.41,60,35,1.23,CD,1696235569
404,happy valley-goose bay,53.3168,-60.3315,8.17,76,75,4.12,CA,1696235292
405,caleta olivia,-46.4393,-67.5281,7.38,61,0,2.96,AR,1696235569
406,luis correia,-2.8792,-41.6669,25.19,83,64,7.11,BR,1696235569
407,menongue,-14.6585,17.691,32.84,24,1,0.26,AO,1696235360
408,port lincoln,-34.7333,135.8667,20.1,58,35,3.79,AU,1696235569
409,charters towers,-20.1,146.2667,22.64,60,6,7.72,AU,1696235569
410,pokhara,28.2333,83.9833,25.69,77,99,0.45,NP,1696235550
411,novobataysk,46.8981,39.7819,21.59,29,28,3.42,RU,1696235570
412,porto novo,6.4965,2.6036,27.9,67,35,3.6,BJ,1696235570
413,ust-tsilma,65.441,52.1498,11.45,94,100,2.24,RU,1696235570
414,cabedelo,-6.9811,-34.8339,21.37,71,82,3.93,BR,1696235570
415,port macquarie,-31.4333,152.9167,19.38,84,11,2.16,AU,1696235331
416,bom jesus,-9.0744,-44.3586,21.78,39,38,1.14,BR,1696235570
417,orosei,40.3798,9.6929,25.88,35,5,1.29,IT,1696235570
418,hilo,19.7297,-155.09,22.92,92,0,1.54,US,1696235570
419,lobujya,27.95,86.8167,2.9,99,100,3.11,NP,1696235570
420,juba,4.8517,31.5825,33.59,44,45,1.95,SS,1696235570
421,bamboo flat,11.7,92.7167,27.05,89,75,5.66,IN,1696235571
422,paracatu,-17.2222,-46.8747,21.71,84,100,1.4,BR,1696235571
423,sokolow podlaski,52.4068,22.2531,17.36,55,69,3.27,PL,1696235571
424,portage la prairie,49.9728,-98.2926,16.05,72,94,5.57,CA,1696235529
425,sao felix do xingu,-6.6447,-51.995,24.79,58,100,0.21,BR,1696235286
426,el nido,11.1858,119.3956,28.3,81,100,6.77,PH,1696235571
427,kone,-21.0595,164.8658,19.6,80,38,2.52,NC,1696235571
428,hobyo,5.3505,48.5268,29.57,66,38,7.53,SO,1696235571
429,manokwari,-0.8667,134.0833,27.46,80,69,3.21,ID,1696235571
430,cold springs,39.6802,-119.9766,9.71,67,100,2.24,US,1696235572
431,remire-montjoly,4.9167,-52.2667,24.02,94,75,0.0,GF,1696235572
432,phanom thuan,14.1303,99.6986,31.89,63,44,3.66,TH,1696235572
433,emerald,-23.5333,148.1667,26.3,32,0,8.44,AU,1696235451
434,bikaner,28.0167,73.3,36.59,14,56,2.0,IN,1696235416
435,jalpan,21.2333,-99.4833,19.83,92,93,0.47,MX,1696235572
436,betio village,1.358,172.9211,30.02,70,9,4.05,KI,1696235572
437,belyy yar,53.6039,91.3903,9.94,62,0,2.0,RU,1696235572
438,yung shue wan,22.2333,114.1167,32.11,74,17,0.45,HK,1696235572
439,port lavaca,28.615,-96.6261,26.03,90,0,3.09,US,1696235573
440,mamboma,8.0833,-11.6833,25.32,91,92,1.64,SL,1696235573
441,nawada,24.8833,85.5333,30.68,71,97,4.92,IN,1696235573
442,cooma,-36.2333,149.1333,17.93,43,43,1.48,AU,1696235448
443,mpika,-11.8343,31.4529,29.26,22,12,7.77,ZM,1696235573
444,rosso,16.4986,-15.8153,29.37,59,20,4.2,SN,1696235573
445,mildenhall,51.4256,-1.6999,16.84,93,100,0.89,GB,1696235573
446,dalbandin,28.8947,64.4101,32.32,8,0,1.86,PK,1696235573
447,kimbe,-5.5502,150.1429,25.52,91,99,1.8,PG,1696235573
448,kerikeri,-35.2268,173.9474,15.51,87,55,2.24,NZ,1696235573
449,nishinoomote,30.7333,131.0,24.31,68,20,3.09,JP,1696235574
450,nora,59.5193,15.0398,13.8,100,100,0.45,SE,1696235574
451,arraial do cabo,-22.9661,-42.0278,21.1,97,100,4.64,BR,1696235574
452,kirensk,57.7853,108.1119,2.23,61,100,4.92,RU,1696235574
453,kattivakkam,13.2167,80.3167,34.48,62,100,5.82,IN,1696235574
454,kailua-kona,19.6406,-155.9956,25.98,81,0,1.79,US,1696235386
455,kalmunai,7.4167,81.8167,30.77,65,99,6.57,LK,1696235574
456,camana,-16.6228,-72.7111,17.57,88,89,2.63,PE,1696235574
457,buala,-8.145,159.5921,27.34,85,58,2.8,SB,1696235575
458,tarauaca,-8.1614,-70.7656,22.23,98,100,0.74,BR,1696235285
459,sao jose da coroa grande,-8.8978,-35.1478,23.01,75,56,0.73,BR,1696235575
460,toamasina,-18.1667,49.3833,28.0,78,20,5.14,MG,1696235575
461,macas,-2.3167,-78.1167,18.64,89,99,1.6,EC,1696235575
462,midvagur,62.0511,-7.1939,10.46,93,100,5.66,FO,1696235575
463,dunedin,-45.8742,170.5036,7.67,69,66,6.26,NZ,1696235575
464,sake,-1.5736,29.045,27.17,48,67,1.31,CD,1696235335
465,lagos,6.5833,3.75,27.18,80,31,2.02,NG,1696235356
466,chonchi,-42.6128,-73.8092,2.56,97,14,0.74,CL,1696235494
467,la dorada,5.4478,-74.6631,23.09,97,100,0.75,CO,1696235575
468,barcelos,41.5388,-8.6151,22.73,64,2,1.78,PT,1696235576
469,shyroke,47.6917,33.2571,20.65,38,10,7.76,UA,1696235576
470,tionk essil,12.7856,-16.5217,27.98,79,100,1.46,SN,1696235576
471,banda aceh,5.5577,95.3222,29.35,73,86,7.15,ID,1696235576
472,mersrags,57.3354,23.1246,14.8,73,83,4.63,LV,1696235576
473,tual,-5.6667,132.75,26.47,87,59,6.31,ID,1696235576
474,sahab,31.8721,36.005,23.06,56,40,6.17,JO,1696235576
475,zhangye,38.9342,100.4517,22.25,23,5,4.53,CN,1696235577
476,alenquer,-1.9417,-54.7383,24.61,65,24,1.48,BR,1696235577
477,port blair,11.6667,92.75,27.02,89,75,5.66,IN,1696235577
478,ibateguara,-8.9725,-35.9394,18.16,91,10,1.11,BR,1696235577
479,nadym,65.5333,72.5167,10.95,83,100,8.62,RU,1696235577
480,chunskiy,56.0815,99.6342,4.26,44,99,3.05,RU,1696235577
481,lensk,60.7253,114.9278,3.18,57,96,4.47,RU,1696235577
482,cabo san lucas,22.8909,-109.9124,28.12,79,2,6.12,MX,1696235499
483,guiuan,11.0333,125.7247,29.82,77,100,6.34,PH,1696235577
484,ts'nori,41.6209,45.9694,22.42,60,100,0.75,GE,1696235577
485,smithers,54.7804,-127.1743,7.18,100,100,0.0,CA,1696235578
486,nikolayevsk-on-amure,53.1406,140.73,8.73,97,100,3.53,RU,1696235578
487,borba,-4.3878,-59.5939,24.51,52,100,1.17,BR,1696235578
488,tovuz,40.9922,45.6289,20.99,61,100,2.48,AZ,1696235578
489,bosobolo,4.1833,19.9,29.32,76,36,0.33,CD,1696235578
490,hirara,24.8,125.2833,28.15,78,75,11.32,JP,1696235578
491,pervomayskoye,43.919,46.7102,24.48,38,100,6.71,RU,1696235578
492,say,13.1007,2.3689,30.31,57,100,2.0,NE,1696235578
493,chui,-33.6971,-53.4616,7.1,92,0,2.07,UY,1696235578
494,la foa,-21.7108,165.8276,21.3,67,11,3.2,NC,1696235579
495,aioun,16.6614,-9.6149,32.88,26,100,2.68,MR,1696235579
496,paka,4.6374,103.4368,29.99,79,20,1.54,MY,1696235579
497,hotan,37.0997,79.9269,24.34,15,33,2.5,CN,1696235579
498,tocopilla,-22.092,-70.1979,16.94,78,27,3.41,CL,1696235579
499,jatibonico,21.9419,-79.17,24.33,95,74,1.97,CU,1696235579
500,nandu,22.8525,110.8233,30.83,69,60,0.59,CN,1696235579
501,hatta,24.1167,79.6,31.79,54,68,5.1,IN,1696235579
502,san luis del palmar,-27.5079,-58.5545,14.93,70,74,3.39,AR,1696235579
503,aripuana,-9.1667,-60.6333,25.46,64,100,1.02,BR,1696235580
504,manaure,11.7751,-72.4445,27.26,82,98,0.33,CO,1696235580
505,woolgoolga,-30.1106,153.2007,18.93,86,4,0.59,AU,1696235580
506,vernon,50.2581,-119.2691,8.85,78,100,4.12,CA,1696235580
507,coquimbo,-29.9533,-71.3436,12.85,87,100,3.09,CL,1696235580
508,macau,22.2006,113.5461,31.89,79,20,5.66,MO,1696235518
509,renqiu,38.6989,116.0936,21.75,46,100,2.96,CN,1696235580
510,levuka,50.1834,-105.4011,8.9,89,100,2.27,CA,1696235580
511,butner,36.1321,-78.7567,16.2,88,0,2.32,US,1696235580
512,tromso,69.6496,18.957,4.01,87,75,2.57,NO,1696235581
513,sarkand,45.41,79.9186,22.07,23,100,3.66,KZ,1696235581
514,mau,25.95,83.55,31.38,65,95,5.05,IN,1696235581
515,barpeta,26.3167,91.0,31.7,65,99,0.23,IN,1696235581
516,kerteminde,55.449,10.6577,17.2,90,99,7.34,DK,1696235581
517,atherton,53.5237,-2.4935,13.91,96,100,1.19,GB,1696235581
518,dien bien phu,21.3833,103.0167,28.0,82,96,1.21,VN,1696235581
519,beledweyne,4.7358,45.2036,34.02,39,5,5.7,SO,1696235582
520,kanker,20.2719,81.4931,31.14,59,80,4.83,IN,1696235582
521,zheleznogorsk,52.331,35.3711,15.02,49,51,4.67,RU,1696235582
522,rome,34.257,-85.1647,19.03,89,0,1.54,US,1696235470
523,greenville,35.6127,-77.3663,16.18,97,0,0.0,US,1696235566
524,cockburn town,21.4612,-71.1419,28.29,78,81,5.15,TC,1696235582
525,camapua,-19.5314,-54.0439,23.89,78,35,1.46,BR,1696235582
526,semera,11.501,41.201,33.6,24,0,2.35,ET,1696235582
527,chernyshevskiy,63.0128,112.4714,-0.71,73,100,3.94,RU,1696235583
528,sidi ifni,29.3797,-10.173,29.86,38,3,3.88,MA,1696235583
529,conduaga,8.862,117.4893,26.99,84,100,4.04,PH,1696235583
530,inhambane,-23.865,35.3833,24.99,44,40,7.72,MZ,1696235583
531,sur,22.5667,59.5289,32.18,53,3,3.5,OM,1696235583
532,alo,7.4178,6.7371,27.4,82,100,1.8,NG,1696235583
533,choibalsan,48.0667,114.5,15.0,34,100,1.22,MN,1696235583
534,ciudad del carmen,18.6333,-91.8333,28.4,79,87,3.86,MX,1696235341
535,shimoda,34.6667,138.95,20.61,75,88,5.08,JP,1696235584
536,bandarbeyla,9.4942,50.8122,30.27,65,2,10.27,SO,1696235584
537,sinabang,2.4803,96.3801,27.84,77,100,5.46,ID,1696235584
538,manaure balcon del cesar,10.3928,-73.0325,21.73,87,99,1.52,CO,1696235584
539,sokoni,-6.4333,39.55,26.37,71,19,3.16,TZ,1696235584
540,singkil,-7.9855,111.4161,29.92,45,68,5.01,ID,1696235584
541,romblon,12.5751,122.2708,28.56,81,100,10.07,PH,1696235584
542,ixtapa,20.7,-105.2,27.35,91,95,1.1,MX,1696235584
543,paris,48.8534,2.3488,19.77,79,0,3.09,FR,1696235017
544,victoria falls,-17.9235,25.843,34.27,22,0,6.9,ZW,1696235585
545,adamovka,51.5223,59.9396,14.99,43,73,2.24,RU,1696235585
546,kalnibolotskaya,46.0058,40.4568,23.15,40,65,4.84,RU,1696235585
547,bardai,11.65,7.2333,23.77,83,97,4.73,NG,1696235585
548,pailon,-17.65,-62.75,22.5,69,67,2.03,BO,1696235585
549,banjarmasin,-3.3244,114.591,35.08,36,99,4.37,ID,1696235223
550,saint joseph,39.7686,-94.8466,19.64,83,0,0.0,US,1696235585
551,zhangjiajie,29.1294,110.4783,20.98,89,100,1.56,CN,1696235585
552,yaren,-0.5472,166.916,29.28,73,15,2.61,NR,1696235586
553,bulnes,-36.7423,-72.2985,8.42,89,48,1.04,CL,1696235496
554,saudarkrokur,65.7461,-19.6394,3.8,98,100,7.12,IS,1696235586
555,ha'il,27.5219,41.6907,37.01,12,0,8.23,SA,1696235586
556,mossel bay,-34.1831,22.146,24.96,52,0,2.83,ZA,1696235586
557,berdigestyakh,62.0989,126.6992,7.38,57,98,1.79,RU,1696235586
558,susuman,62.7833,148.1667,1.1,73,10,1.34,RU,1696235586
559,taungoo,18.9333,96.4333,26.07,94,92,2.98,MM,1696235587
560,bafq,31.6128,55.4107,32.64,10,2,0.65,IR,1696235587
561,st. catharines,43.1668,-79.2496,18.7,94,52,1.54,CA,1696235404
562,villamontes,-21.25,-63.5,18.63,56,6,1.32,BO,1696235587
563,severo-yeniseyskiy,60.3725,93.0408,-3.01,87,100,3.58,RU,1696235587
564,pekan,3.4836,103.3996,32.06,79,100,2.25,MY,1696235410
565,igrim,63.1906,64.4162,10.57,83,100,4.47,RU,1696235587
566,nguigmi,14.2495,13.1092,29.14,44,100,3.39,NE,1696235587
567,praia da vitoria,38.7333,-27.0667,19.14,82,40,5.07,PT,1696235588
568,barra,-11.0894,-43.1417,24.06,67,5,5.57,BR,1696235588
569,qingdao,36.0986,120.3719,25.78,25,0,2.0,CN,1696235588
570,kilindoni,-7.9139,39.6668,26.46,69,12,3.39,TZ,1696235588
571,jijiga,9.35,42.8,26.41,26,4,1.79,ET,1696235588
572,le vauclin,14.5452,-60.8388,29.03,84,75,6.69,MQ,1696235588
573,genhe,50.7833,121.5167,10.64,54,76,1.8,CN,1696235588
574,senhor do bonfim,-10.4614,-40.1894,18.96,94,33,1.83,BR,1696235588
575,linxia chengguanzhen,35.6003,103.2064,12.86,87,100,1.2,CN,1696235588
576,anna,51.4842,40.4299,18.23,56,100,5.0,RU,1696235589
577,salmon arm,50.6998,-119.3024,9.13,93,100,1.03,CA,1696235589
578,lauro de freitas,-12.8944,-38.3272,23.01,100,75,1.03,BR,1696235412
579,freetown,8.484,-13.2299,24.84,94,75,2.06,SL,1696235589
580,port-gentil,-0.7193,8.7815,27.98,78,75,7.2,GA,1696235589
581,arkhangel'sk,64.5401,40.5433,9.51,95,100,3.74,RU,1696235589
582,sohbatpur,28.5202,68.5434,39.25,4,0,4.25,PK,1696235589
583,wynyard,-41.0,145.7167,11.45,87,9,5.1,AU,1696235589
584,san borja,-14.8167,-66.85,23.39,87,48,1.4,BO,1696235590
585,cotonou,6.3654,2.4183,27.99,83,40,4.63,BJ,1696235590
586,selty,57.3132,52.1345,16.07,54,100,5.44,RU,1696235590
